{
    "type": "FeatureCollection",
    "features": [
    { "type": "Feature", "properties": { "Primary ID": "D6202115669", "Primary Name": "SAN MICHELE", "SensorID": "D620211566902", "GPS coordinate - Latitude": 40.762, "GPS coordinate - Longitude": 14.035, "RegionName": "Procida" }, "geometry": { "type": "Point", "coordinates": [ 14.035, 40.762 ] } },
    { "type": "Feature", "properties": { "Primary ID": "D6202162425", "Primary Name": "L. CASTELLO", "SensorID": "D620216242502", "GPS coordinate - Latitude": 40.762, "GPS coordinate - Longitude": 14.032, "RegionName": "Procida" }, "geometry": { "type": "Point", "coordinates": [ 14.032, 40.762 ] } },
    { "type": "Feature", "properties": { "Primary ID": "D6202189357", "Primary Name": "CALDIA", "SensorID": "D620218935702", "GPS coordinate - Latitude": 40.761, "GPS coordinate - Longitude": 14.023, "RegionName": "Procida" }, "geometry": { "type": "Point", "coordinates": [ 14.023, 40.761 ] } },
    { "type": "Feature", "properties": { "Primary ID": "D6202247092", "Primary Name": "LINGUA", "SensorID": "D620224709202", "GPS coordinate - Latitude": 40.765, "GPS coordinate - Longitude": 14.033, "RegionName": "Procida" }, "geometry": { "type": "Point", "coordinates": [ 14.033, 40.765 ] } },
    { "type": "Feature", "properties": { "Primary ID": "D6202424371", "Primary Name": "PENITENZ.", "SensorID": "D620242437102", "GPS coordinate - Latitude": 40.761, "GPS coordinate - Longitude": 14.032, "RegionName": "Procida" }, "geometry": { "type": "Point", "coordinates": [ 14.032, 40.761 ] } },
    { "type": "Feature", "properties": { "Primary ID": "D6202517148", "Primary Name": "CAIAZZO", "SensorID": "D620251714802", "GPS coordinate - Latitude": 40.763, "GPS coordinate - Longitude": 14.032, "RegionName": "Procida" }, "geometry": { "type": "Point", "coordinates": [ 14.032, 40.763 ] } },
    { "type": "Feature", "properties": { "Primary ID": "D6202564419", "Primary Name": "SAN ROCCO", "SensorID": "D620256441902", "GPS coordinate - Latitude": 40.762, "GPS coordinate - Longitude": 14.03, "RegionName": "Procida" }, "geometry": { "type": "Point", "coordinates": [ 14.03, 40.762 ] } },
    { "type": "Feature", "properties": { "Primary ID": "D6202636063", "Primary Name": "S. LEONARDO", "SensorID": "D620263606302", "GPS coordinate - Latitude": 40.765, "GPS coordinate - Longitude": 14.021, "RegionName": "Procida" }, "geometry": { "type": "Point", "coordinates": [ 14.021, 40.765 ] } },
    { "type": "Feature", "properties": { "Primary ID": "D6202645641", "Primary Name": "IST. NAUTICO", "SensorID": "D620264564102", "GPS coordinate - Latitude": 40.765, "GPS coordinate - Longitude": 14.031, "RegionName": "Procida" }, "geometry": { "type": "Point", "coordinates": [ 14.031, 40.765 ] } },
    { "type": "Feature", "properties": { "Primary ID": "D6202120074", "Primary Name": "P.MARGHERITA", "SensorID": "D620212007402", "GPS coordinate - Latitude": 40.758, "GPS coordinate - Longitude": 14.02, "RegionName": "Procida" }, "geometry": { "type": "Point", "coordinates": [ 14.02, 40.758 ] } },
    { "type": "Feature", "properties": { "Primary ID": "D6202169323", "Primary Name": "IV NOVEMBRE", "SensorID": "D620216932302", "GPS coordinate - Latitude": 40.755, "GPS coordinate - Longitude": 14.018, "RegionName": "Procida" }, "geometry": { "type": "Point", "coordinates": [ 14.018, 40.755 ] } },
    { "type": "Feature", "properties": { "Primary ID": "D6202179308", "Primary Name": "CENTANE", "SensorID": "D620217930802", "GPS coordinate - Latitude": 40.752, "GPS coordinate - Longitude": 14.015, "RegionName": "Procida" }, "geometry": { "type": "Point", "coordinates": [ 14.015, 40.752 ] } },
    { "type": "Feature", "properties": { "Primary ID": "D6202202361", "Primary Name": "RIVOLI", "SensorID": "D620220236102", "GPS coordinate - Latitude": 40.75, "GPS coordinate - Longitude": 14.009, "RegionName": "Procida" }, "geometry": { "type": "Point", "coordinates": [ 14.009, 40.75 ] } },
    { "type": "Feature", "properties": { "Primary ID": "D6202215847", "Primary Name": "SOLCHIARO", "SensorID": "D620221584702", "GPS coordinate - Latitude": 40.745, "GPS coordinate - Longitude": 14.011, "RegionName": "Procida" }, "geometry": { "type": "Point", "coordinates": [ 14.011, 40.745 ] } },
    { "type": "Feature", "properties": { "Primary ID": "D6202223205", "Primary Name": "P.LE CASCINE", "SensorID": "D620222320502", "GPS coordinate - Latitude": 40.747, "GPS coordinate - Longitude": 14.01, "RegionName": "Procida" }, "geometry": { "type": "Point", "coordinates": [ 14.01, 40.747 ] } },
    { "type": "Feature", "properties": { "Primary ID": "D6202250897", "Primary Name": "S. GIACOMO", "SensorID": "D620225089702", "GPS coordinate - Latitude": 40.761, "GPS coordinate - Longitude": 14.029, "RegionName": "Procida" }, "geometry": { "type": "Point", "coordinates": [ 14.029, 40.761 ] } },
    { "type": "Feature", "properties": { "Primary ID": "D6202402321", "Primary Name": "CHIAIOLEL. 2", "SensorID": "D620240232102", "GPS coordinate - Latitude": 40.748, "GPS coordinate - Longitude": 14.007, "RegionName": "Procida" }, "geometry": { "type": "Point", "coordinates": [ 14.007, 40.748 ] } },
    { "type": "Feature", "properties": { "Primary ID": "D6202466236", "Primary Name": "POSTE", "SensorID": "D620246623602", "GPS coordinate - Latitude": 40.762, "GPS coordinate - Longitude": 14.026, "RegionName": "Procida" }, "geometry": { "type": "Point", "coordinates": [ 14.026, 40.762 ] } },
    { "type": "Feature", "properties": { "Primary ID": "D6202619254", "Primary Name": "OSPEDALE", "SensorID": "D620261925402", "GPS coordinate - Latitude": 40.76, "GPS coordinate - Longitude": 14.021, "RegionName": "Procida" }, "geometry": { "type": "Point", "coordinates": [ 14.021, 40.76 ] } },
    { "type": "Feature", "properties": { "Primary ID": "D6202149482", "Primary Name": "CAVOUR", "SensorID": "D620214948202", "GPS coordinate - Latitude": 40.763, "GPS coordinate - Longitude": 14.017, "RegionName": "Procida" }, "geometry": { "type": "Point", "coordinates": [ 14.017, 40.763 ] } },
    { "type": "Feature", "properties": { "Primary ID": "D6202241345", "Primary Name": "NEMESI", "SensorID": "D620224134502", "GPS coordinate - Latitude": 40.756, "GPS coordinate - Longitude": 14.012, "RegionName": "Procida" }, "geometry": { "type": "Point", "coordinates": [ 14.012, 40.756 ] } },
    { "type": "Feature", "properties": { "Primary ID": "D6202332768", "Primary Name": "M. GROTTE", "SensorID": "D620233276802", "GPS coordinate - Latitude": 40.766, "GPS coordinate - Longitude": 14.024, "RegionName": "Procida" }, "geometry": { "type": "Point", "coordinates": [ 14.024, 40.766 ] } },
    { "type": "Feature", "properties": { "Primary ID": "D6202365236", "Primary Name": "CHIAOLELLA", "SensorID": "D620236523602", "GPS coordinate - Latitude": 40.749, "GPS coordinate - Longitude": 14.005, "RegionName": "Procida" }, "geometry": { "type": "Point", "coordinates": [ 14.005, 40.749 ] } },
    { "type": "Feature", "properties": { "Primary ID": "D6202424776", "Primary Name": "SALETTE", "SensorID": "D620242477602", "GPS coordinate - Latitude": 40.757, "GPS coordinate - Longitude": 14.01, "RegionName": "Procida" }, "geometry": { "type": "Point", "coordinates": [ 14.01, 40.757 ] } },
    { "type": "Feature", "properties": { "Primary ID": "D6202494288", "Primary Name": "LIBERTA'", "SensorID": "D620249428802", "GPS coordinate - Latitude": 40.765, "GPS coordinate - Longitude": 14.021, "RegionName": "Procida" }, "geometry": { "type": "Point", "coordinates": [ 14.021, 40.765 ] } },
    { "type": "Feature", "properties": { "Primary ID": "D6202499370", "Primary Name": "CIMITERO", "SensorID": "D620249937002", "GPS coordinate - Latitude": 40.762, "GPS coordinate - Longitude": 14.012, "RegionName": "Procida" }, "geometry": { "type": "Point", "coordinates": [ 14.012, 40.762 ] } },
    { "type": "Feature", "properties": { "Primary ID": "D6202512888", "Primary Name": "CIRACCIO", "SensorID": "D620251288802", "GPS coordinate - Latitude": 40.756, "GPS coordinate - Longitude": 14.008, "RegionName": "Procida" }, "geometry": { "type": "Point", "coordinates": [ 14.008, 40.756 ] } },
    { "type": "Feature", "properties": { "Primary ID": "D6202517764", "Primary Name": "CHIARA", "SensorID": "D620251776402", "GPS coordinate - Latitude": 40.753, "GPS coordinate - Longitude": 14.007, "RegionName": "Procida" }, "geometry": { "type": "Point", "coordinates": [ 14.007, 40.753 ] } },
    { "type": "Feature", "properties": { "Primary ID": "D6202555339", "Primary Name": "GIOVANNI DAP", "SensorID": "D620255533902", "GPS coordinate - Latitude": 40.754, "GPS coordinate - Longitude": 14.012, "RegionName": "Procida" }, "geometry": { "type": "Point", "coordinates": [ 14.012, 40.754 ] } },
    { "type": "Feature", "properties": { "Primary ID": "D6202580156", "Primary Name": "FARO", "SensorID": "D620258015602", "GPS coordinate - Latitude": 40.767, "GPS coordinate - Longitude": 14.018, "RegionName": "Procida" }, "geometry": { "type": "Point", "coordinates": [ 14.018, 40.767 ] } },
    { "type": "Feature", "properties": { "Primary ID": "D6202646961", "Primary Name": "SERRA", "SensorID": "D620264696102", "GPS coordinate - Latitude": 40.761, "GPS coordinate - Longitude": 14.01, "RegionName": "Procida" }, "geometry": { "type": "Point", "coordinates": [ 14.01, 40.761 ] } },
    { "type": "Feature", "properties": { "Primary ID": "D6202663392", "Primary Name": "FLAVIO GIOIA", "SensorID": "D620266339202", "GPS coordinate - Latitude": 40.754, "GPS coordinate - Longitude": 14.017, "RegionName": "Procida" }, "geometry": { "type": "Point", "coordinates": [ 14.017, 40.754 ] } },
    { "type": "Feature", "properties": { "Primary ID": "D6202379984", "Primary Name": "CURATO", "SensorID": "D620237998402", "GPS coordinate - Latitude": 40.764, "GPS coordinate - Longitude": 14.024, "RegionName": "Procida" }, "geometry": { "type": "Point", "coordinates": [ 14.024, 40.764 ] } },
    { "type": "Feature", "properties": { "Primary ID": "D6202458489", "Primary Name": "CASACOMUNALE", "SensorID": "D620245848902", "GPS coordinate - Latitude": 40.765, "GPS coordinate - Longitude": 14.024, "RegionName": "Procida" }, "geometry": { "type": "Point", "coordinates": [ 14.024, 40.765 ] } },
    { "type": "Feature", "properties": { "Primary ID": "D6202474613", "Primary Name": "SPECI", "SensorID": "D620247461302", "GPS coordinate - Latitude": 40.765, "GPS coordinate - Longitude": 14.002, "RegionName": "Procida" }, "geometry": { "type": "Point", "coordinates": [ 14.002, 40.765 ] } }
    ]
    }
    